{
    "type": "FeatureCollection",
 
    "features": [
        {
            "type": "Feature",
            "id": 0,
            "geometry": {
                "type": "Point",
                "coordinates": [
                    117.004116,
                    35.418402
                ]
            },
            "properties": {
                "FID": 0,
                "objectId": 1,
                "name": "兖州矿区职工大学",
                "lon": 117.004116,
                "lat": 35.418402
            }
        },
        {
            "type": "Feature",
            "id": 1,
            "geometry": {
                "type": "Point",
                "coordinates": [
                    104.77203299999999,
                    29.338543000000001
                ]
            },
            "properties": {
                "FID": 1,
                "objectId": 2,
                "name": "四川理工学院",
                "lon": 104.77203299999999,
                "lat": 29.338543000000001
            }
        },
        {
            "type": "Feature",
            "id": 2,
            "geometry": {
                "type": "Point",
                "coordinates": [
                    117.899636,
                    36.65804
                ]
            },
            "properties": {
                "FID": 2,
                "objectId": 3,
                "name": "山东水利技师学院",
                "lon": 117.899636,
                "lat": 36.65804
            }
        },
        {
            "type": "Feature",
            "id": 3,
            "geometry": {
                "type": "Point",
                "coordinates": [
                    117.258201,
                    29.298183999999999
                ]
            },
            "properties": {
                "FID": 3,
                "objectId": 4,
                "name": "景德镇陶瓷学院（湘湖校区）",
                "lon": 117.258201,
                "lat": 29.298183999999999
            }
        },
        {
            "type": "Feature",
            "id": 4,
            "geometry": {
                "type": "Point",
                "coordinates": [
                    112.65367999999999,
                    26.911197000000001
                ]
            },
            "properties": {
                "FID": 4,
                "objectId": 5,
                "name": "湖南致公专修大学",
                "lon": 112.65367999999999,
                "lat": 26.911197000000001
            }
        },
        {
            "type": "Feature",
            "id": 5,
            "geometry": {
                "type": "Point",
                "coordinates": [
                    117.85646699999999,
                    36.801223999999998
                ]
            },
            "properties": {
                "FID": 5,
                "objectId": 6,
                "name": "山东杏林科技职业学院",
                "lon": 117.85646699999999,
                "lat": 36.801223999999998
            }
        },
        {
            "type": "Feature",
            "id": 6,
            "geometry": {
                "type": "Point",
                "coordinates": [
                    112.410562,
                    31.209316000000001
                ]
            },
            "properties": {
                "FID": 6,
                "objectId": 7,
                "name": "湖北中医药高等高职学校",
                "lon": 112.410562,
                "lat": 31.209316000000001
            }
        },
        {
            "type": "Feature",
            "id": 7,
            "geometry": {
                "type": "Point",
                "coordinates": [
                    104.799814,
                    26.614581000000001
                ]
            },
            "properties": {
                "FID": 7,
                "objectId": 8,
                "name": "六盘水职业技术学院",
                "lon": 104.799814,
                "lat": 26.614581000000001
            }
        },
        {
            "type": "Feature",
            "id": 8,
            "geometry": {
                "type": "Point",
                "coordinates": [
                    119.903751,
                    31.835735
                ]
            },
            "properties": {
                "FID": 8,
                "objectId": 9,
                "name": "常州机电职业技术学院",
                "lon": 119.903751,
                "lat": 31.835735
            }
        },
        {
            "type": "Feature",
            "id": 9,
            "geometry": {
                "type": "Point",
                "coordinates": [
                    113.557892,
                    34.833300000000001
                ]
            },
            "properties": {
                "FID": 9,
                "objectId": 10,
                "name": "河南工业大学（莲花街校区）",
                "lon": 113.557892,
                "lat": 34.833300000000001
            }
        },
        {
            "type": "Feature",
            "id": 10,
            "geometry": {
                "type": "Point",
                "coordinates": [
                    114.14926800000001,
                    22.287502
                ]
            },
            "properties": {
                "FID": 10,
                "objectId": 11,
                "name": "香港大学",
                "lon": 114.14926800000001,
                "lat": 22.287502
            }
        },
        {
            "type": "Feature",
            "id": 11,
            "geometry": {
                "type": "Point",
                "coordinates": [
                    113.418481,
                    22.480665999999999
                ]
            },
            "properties": {
                "FID": 11,
                "objectId": 12,
                "name": "广东药学院（中山校区）",
                "lon": 113.418481,
                "lat": 22.480665999999999
            }
        },
        {
            "type": "Feature",
            "id": 12,
            "geometry": {
                "type": "Point",
                "coordinates": [
                    121.669802,
                    38.888455
                ]
            },
            "properties": {
                "FID": 12,
                "objectId": 13,
                "name": "大连理工大学",
                "lon": 121.669802,
                "lat": 38.888455
            }
        },
        {
            "type": "Feature",
            "id": 13,
            "geometry": {
                "type": "Point",
                "coordinates": [
                    113.999878,
                    34.727887000000003
                ]
            },
            "properties": {
                "FID": 13,
                "objectId": 14,
                "name": "郑州电力职业技术学院",
                "lon": 113.999878,
                "lat": 34.727887000000003
            }
        },
        {
            "type": "Feature",
            "id": 14,
            "geometry": {
                "type": "Point",
                "coordinates": [
                    121.365584,
                    37.528497999999999
                ]
            },
            "properties": {
                "FID": 14,
                "objectId": 15,
                "name": "鲁东大学（主校区）",
                "lon": 121.365584,
                "lat": 37.528497999999999
            }
        },
        {
            "type": "Feature",
            "id": 15,
            "geometry": {
                "type": "Point",
                "coordinates": [
                    112.603148,
                    26.896345
                ]
            },
            "properties": {
                "FID": 15,
                "objectId": 16,
                "name": "长沙医学院",
                "lon": 112.603148,
                "lat": 26.896345
            }
        },
        {
            "type": "Feature",
            "id": 16,
            "geometry": {
                "type": "Point",
                "coordinates": [
                    124.330737,
                    40.068078
                ]
            },
            "properties": {
                "FID": 16,
                "objectId": 17,
                "name": "辽宁地质工程职业学院",
                "lon": 124.330737,
                "lat": 40.068078
            }
        },
        {
            "type": "Feature",
            "id": 17,
            "geometry": {
                "type": "Point",
                "coordinates": [
                    124.43579699999999,
                    40.157814000000002
                ]
            },
            "properties": {
                "FID": 17,
                "objectId": 18,
                "name": "辽东学院（南校区）",
                "lon": 124.43579699999999,
                "lat": 40.157814000000002
            }
        },
        {
            "type": "Feature",
            "id": 18,
            "geometry": {
                "type": "Point",
                "coordinates": [
                    113.60278,
                    24.820281000000001
                ]
            },
            "properties": {
                "FID": 18,
                "objectId": 19,
                "name": "韶关学院韶州师范分院（浈江区）",
                "lon": 113.60278,
                "lat": 24.820281000000001
            }
        },
        {
            "type": "Feature",
            "id": 19,
            "geometry": {
                "type": "Point",
                "coordinates": [
                    120.41308100000001,
                    37.374256000000003
                ]
            },
            "properties": {
                "FID": 19,
                "objectId": 20,
                "name": "烟台汽车工程技术学院",
                "lon": 120.41308100000001,
                "lat": 37.374256000000003
            }
        },
        {
            "type": "Feature",
            "id": 20,
            "geometry": {
                "type": "Point",
                "coordinates": [
                    113.08994,
                    28.261887999999999
                ]
            },
            "properties": {
                "FID": 20,
                "objectId": 21,
                "name": "长沙师范学院（南校区）",
                "lon": 113.08994,
                "lat": 28.261887999999999
            }
        },
        {
            "type": "Feature",
            "id": 21,
            "geometry": {
                "type": "Point",
                "coordinates": [
                    116.841435,
                    36.556876000000003
                ]
            },
            "properties": {
                "FID": 21,
                "objectId": 22,
                "name": "山东师范大学（长清校区）",
                "lon": 116.841435,
                "lat": 36.556876000000003
            }
        },
        {
            "type": "Feature",
            "id": 22,
            "geometry": {
                "type": "Point",
                "coordinates": [
                    119.505788,
                    25.930288999999998
                ]
            },
            "properties": {
                "FID": 22,
                "objectId": 23,
                "name": "福州外语外贸学院",
                "lon": 119.505788,
                "lat": 25.930288999999998
            }
        },
        {
            "type": "Feature",
            "id": 23,
            "geometry": {
                "type": "Point",
                "coordinates": [
                    108.84753600000001,
                    34.128399999999999
                ]
            },
            "properties": {
                "FID": 23,
                "objectId": 24,
                "name": "西安电子科技大学（南校区）",
                "lon": 108.84753600000001,
                "lat": 34.128399999999999
            }
        },
        {
            "type": "Feature",
            "id": 24,
            "geometry": {
                "type": "Point",
                "coordinates": [
                    117.551312,
                    36.681694
                ]
            },
            "properties": {
                "FID": 24,
                "objectId": 25,
                "name": "齐鲁理工学院",
                "lon": 117.551312,
                "lat": 36.681694
            }
        },
        {
            "type": "Feature",
            "id": 25,
            "geometry": {
                "type": "Point",
                "coordinates": [
                    114.94000699999999,
                    25.865243
                ]
            },
            "properties": {
                "FID": 25,
                "objectId": 26,
                "name": "赣南医学院（黄金校区）",
                "lon": 114.94000699999999,
                "lat": 25.865243
            }
        },
        {
            "type": "Feature",
            "id": 26,
            "geometry": {
                "type": "Point",
                "coordinates": [
                    110.74677,
                    32.656694000000002
                ]
            },
            "properties": {
                "FID": 26,
                "objectId": 27,
                "name": "湖北汽车工业学院",
                "lon": 110.74677,
                "lat": 32.656694000000002
            }
        },
        {
            "type": "Feature",
            "id": 27,
            "geometry": {
                "type": "Point",
                "coordinates": [
                    120.57899399999999,
                    31.902812000000001
                ]
            },
            "properties": {
                "FID": 27,
                "objectId": 28,
                "name": "沙洲职业工学院",
                "lon": 120.57899399999999,
                "lat": 31.902812000000001
            }
        },
        {
            "type": "Feature",
            "id": 28,
            "geometry": {
                "type": "Point",
                "coordinates": [
                    118.03727499999999,
                    36.811883999999999
                ]
            },
            "properties": {
                "FID": 28,
                "objectId": 29,
                "name": "山东药品食品职业学院",
                "lon": 118.03727499999999,
                "lat": 36.811883999999999
            }
        },
        {
            "type": "Feature",
            "id": 29,
            "geometry": {
                "type": "Point",
                "coordinates": [
                    113.297248,
                    33.719045000000001
                ]
            },
            "properties": {
                "FID": 29,
                "objectId": 30,
                "name": "河南质量工程职业学院",
                "lon": 113.297248,
                "lat": 33.719045000000001
            }
        },
        {
            "type": "Feature",
            "id": 30,
            "geometry": {
                "type": "Point",
                "coordinates": [
                    122.25272699999999,
                    40.665702000000003
                ]
            },
            "properties": {
                "FID": 30,
                "objectId": 31,
                "name": "辽宁理工职业技术学院",
                "lon": 122.25272699999999,
                "lat": 40.665702000000003
            }
        },
        {
            "type": "Feature",
            "id": 31,
            "geometry": {
                "type": "Point",
                "coordinates": [
                    113.786833,
                    23.263493
                ]
            },
            "properties": {
                "FID": 31,
                "objectId": 32,
                "name": "广州华商职业学院",
                "lon": 113.786833,
                "lat": 23.263493
            }
        },
        {
            "type": "Feature",
            "id": 32,
            "geometry": {
                "type": "Point",
                "coordinates": [
                    106.728227,
                    26.594373999999998
                ]
            },
            "properties": {
                "FID": 32,
                "objectId": 33,
                "name": "贵州师范大学",
                "lon": 106.728227,
                "lat": 26.594373999999998
            }
        },
        {
            "type": "Feature",
            "id": 33,
            "geometry": {
                "type": "Point",
                "coordinates": [
                    117.26264999999999,
                    34.268062
                ]
            },
            "properties": {
                "FID": 33,
                "objectId": 34,
                "name": "徐州医学院（西校区）",
                "lon": 117.26264999999999,
                "lat": 34.268062
            }
        },
        {
            "type": "Feature",
            "id": 34,
            "geometry": {
                "type": "Point",
                "coordinates": [
                    113.306065,
                    23.139402
                ]
            },
            "properties": {
                "FID": 34,
                "objectId": 35,
                "name": "广东工业大学(大学城校区)",
                "lon": 113.306065,
                "lat": 23.139402
            }
        },
        {
            "type": "Feature",
            "id": 35,
            "geometry": {
                "type": "Point",
                "coordinates": [
                    120.583686,
                    30.035308000000001
                ]
            },
            "properties": {
                "FID": 35,
                "objectId": 36,
                "name": "浙江工业职业技术学院（梅山校区）",
                "lon": 120.583686,
                "lat": 30.035308000000001
            }
        },
        {
            "type": "Feature",
            "id": 36,
            "geometry": {
                "type": "Point",
                "coordinates": [
                    113.125491,
                    29.36626
                ]
            },
            "properties": {
                "FID": 36,
                "objectId": 37,
                "name": "湖南理工学院（南院）",
                "lon": 113.125491,
                "lat": 29.36626
            }
        },
        {
            "type": "Feature",
            "id": 37,
            "geometry": {
                "type": "Point",
                "coordinates": [
                    112.954036,
                    27.842984000000001
                ]
            },
            "properties": {
                "FID": 37,
                "objectId": 38,
                "name": "湖南工业贸易职业技术学院",
                "lon": 112.954036,
                "lat": 27.842984000000001
            }
        },
        {
            "type": "Feature",
            "id": 38,
            "geometry": {
                "type": "Point",
                "coordinates": [
                    112.95033599999999,
                    28.185611999999999
                ]
            },
            "properties": {
                "FID": 38,
                "objectId": 39,
                "name": "湖南大学（南校区）",
                "lon": 112.95033599999999,
                "lat": 28.185611999999999
            }
        },
        {
            "type": "Feature",
            "id": 39,
            "geometry": {
                "type": "Point",
                "coordinates": [
                    114.015511,
                    33.575158000000002
                ]
            },
            "properties": {
                "FID": 39,
                "objectId": 40,
                "name": "漯河职业技术学院",
                "lon": 114.015511,
                "lat": 33.575158000000002
            }
        },
        {
            "type": "Feature",
            "id": 40,
            "geometry": {
                "type": "Point",
                "coordinates": [
                    114.375871,
                    27.803968000000001
                ]
            },
            "properties": {
                "FID": 40,
                "objectId": 41,
                "name": "宜春职业技术学院",
                "lon": 114.375871,
                "lat": 27.803968000000001
            }
        },
        {
            "type": "Feature",
            "id": 41,
            "geometry": {
                "type": "Point",
                "coordinates": [
                    110.2109,
                    22.658474999999999
                ]
            },
            "properties": {
                "FID": 41,
                "objectId": 42,
                "name": "玉林师范学院（东校区）",
                "lon": 110.2109,
                "lat": 22.658474999999999
            }
        },
        {
            "type": "Feature",
            "id": 42,
            "geometry": {
                "type": "Point",
                "coordinates": [
                    111.68106299999999,
                    40.764980999999999
                ]
            },
            "properties": {
                "FID": 42,
                "objectId": 43,
                "name": "内蒙古大学创业学院",
                "lon": 111.68106299999999,
                "lat": 40.764980999999999
            }
        },
        {
            "type": "Feature",
            "id": 43,
            "geometry": {
                "type": "Point",
                "coordinates": [
                    113.501813,
                    34.179518999999999
                ]
            },
            "properties": {
                "FID": 43,
                "objectId": 44,
                "name": "许昌陶瓷职业学院",
                "lon": 113.501813,
                "lat": 34.179518999999999
            }
        },
        {
            "type": "Feature",
            "id": 44,
            "geometry": {
                "type": "Point",
                "coordinates": [
                    118.758645,
                    31.963526999999999
                ]
            },
            "properties": {
                "FID": 44,
                "objectId": 45,
                "name": "三江大学",
                "lon": 118.758645,
                "lat": 31.963526999999999
            }
        },
        {
            "type": "Feature",
            "id": 45,
            "geometry": {
                "type": "Point",
                "coordinates": [
                    112.999961,
                    28.163136999999999
                ]
            },
            "properties": {
                "FID": 45,
                "objectId": 46,
                "name": "湖南工业职业技术学院",
                "lon": 112.999961,
                "lat": 28.163136999999999
            }
        },
        {
            "type": "Feature",
            "id": 46,
            "geometry": {
                "type": "Point",
                "coordinates": [
                    112.931093,
                    27.874452999999999
                ]
            },
            "properties": {
                "FID": 46,
                "objectId": 47,
                "name": "湖南大众传媒职业技术学院（韶山路校区）",
                "lon": 112.931093,
                "lat": 27.874452999999999
            }
        },
        {
            "type": "Feature",
            "id": 47,
            "geometry": {
                "type": "Point",
                "coordinates": [
                    103.05655299999999,
                    30.023482000000001
                ]
            },
            "properties": {
                "FID": 47,
                "objectId": 48,
                "name": "雅安职业技术学院",
                "lon": 103.05655299999999,
                "lat": 30.023482000000001
            }
        },
        {
            "type": "Feature",
            "id": 48,
            "geometry": {
                "type": "Point",
                "coordinates": [
                    104.24429000000001,
                    35.999785000000003
                ]
            },
            "properties": {
                "FID": 48,
                "objectId": 49,
                "name": "西北民族大学(榆中校区)",
                "lon": 104.24429000000001,
                "lat": 35.999785000000003
            }
        },
        {
            "type": "Feature",
            "id": 49,
            "geometry": {
                "type": "Point",
                "coordinates": [
                    109.729625,
                    38.299416999999998
                ]
            },
            "properties": {
                "FID": 49,
                "objectId": 50,
                "name": "榆林学院",
                "lon": 109.729625,
                "lat": 38.299416999999998
            }
        },
        {
            "type": "Feature",
            "id": 50,
            "geometry": {
                "type": "Point",
                "coordinates": [
                    112.72797,
                    37.749887999999999
                ]
            },
            "properties": {
                "FID": 50,
                "objectId": 51,
                "name": "太原理工大学（虎峪校区）",
                "lon": 112.72797,
                "lat": 37.749887999999999
            }
        },
        {
            "type": "Feature",
            "id": 51,
            "geometry": {
                "type": "Point",
                "coordinates": [
                    106.53212000000001,
                    29.542217999999998
                ]
            },
            "properties": {
                "FID": 51,
                "objectId": 52,
                "name": "中国药科大学",
                "lon": 106.53212000000001,
                "lat": 29.542217999999998
            }
        },
        {
            "type": "Feature",
            "id": 52,
            "geometry": {
                "type": "Point",
                "coordinates": [
                    115.003404,
                    27.862791999999999
                ]
            },
            "properties": {
                "FID": 52,
                "objectId": 53,
                "name": "新余学院",
                "lon": 115.003404,
                "lat": 27.862791999999999
            }
        },
        {
            "type": "Feature",
            "id": 53,
            "geometry": {
                "type": "Point",
                "coordinates": [
                    106.521137,
                    29.593197
                ]
            },
            "properties": {
                "FID": 53,
                "objectId": 54,
                "name": "重庆航天职业技术学院",
                "lon": 106.521137,
                "lat": 29.593197
            }
        },
        {
            "type": "Feature",
            "id": 54,
            "geometry": {
                "type": "Point",
                "coordinates": [
                    109.456301,
                    24.301977000000001
                ]
            },
            "properties": {
                "FID": 54,
                "objectId": 55,
                "name": "柳州职业技术学院（南校区）",
                "lon": 109.456301,
                "lat": 24.301977000000001
            }
        },
        {
            "type": "Feature",
            "id": 55,
            "geometry": {
                "type": "Point",
                "coordinates": [
                    123.46200399999999,
                    41.836013999999999
                ]
            },
            "properties": {
                "FID": 55,
                "objectId": 56,
                "name": "沈阳音乐学院（柳条湖街）",
                "lon": 123.46200399999999,
                "lat": 41.836013999999999
            }
        },
        {
            "type": "Feature",
            "id": 56,
            "geometry": {
                "type": "Point",
                "coordinates": [
                    106.505596,
                    23.941866000000001
                ]
            },
            "properties": {
                "FID": 56,
                "objectId": 57,
                "name": "右江名族医学院",
                "lon": 106.505596,
                "lat": 23.941866000000001
            }
        },
        {
            "type": "Feature",
            "id": 57,
            "geometry": {
                "type": "Point",
                "coordinates": [
                    104.79554400000001,
                    31.497508
                ]
            },
            "properties": {
                "FID": 57,
                "objectId": 58,
                "name": "绵阳职业技术学院",
                "lon": 104.79554400000001,
                "lat": 31.497508
            }
        },
        {
            "type": "Feature",
            "id": 58,
            "geometry": {
                "type": "Point",
                "coordinates": [
                    114.18624800000001,
                    22.301054000000001
                ]
            },
            "properties": {
                "FID": 58,
                "objectId": 59,
                "name": "香港浸会大学",
                "lon": 114.18624800000001,
                "lat": 22.301054000000001
            }
        },
        {
            "type": "Feature",
            "id": 59,
            "geometry": {
                "type": "Point",
                "coordinates": [
                    117.984943,
                    26.050118000000001
                ]
            },
            "properties": {
                "FID": 59,
                "objectId": 60,
                "name": "福建华南女子职业学院旗山校区",
                "lon": 117.984943,
                "lat": 26.050118000000001
            }
        },
        {
            "type": "Feature",
            "id": 60,
            "geometry": {
                "type": "Point",
                "coordinates": [
                    106.24225800000001,
                    38.253945000000002
                ]
            },
            "properties": {
                "FID": 60,
                "objectId": 61,
                "name": "银川能源学院",
                "lon": 106.24225800000001,
                "lat": 38.253945000000002
            }
        },
        {
            "type": "Feature",
            "id": 61,
            "geometry": {
                "type": "Point",
                "coordinates": [
                    126.26287600000001,
                    43.678846
                ]
            },
            "properties": {
                "FID": 61,
                "objectId": 62,
                "name": "吉林省教育学院",
                "lon": 126.26287600000001,
                "lat": 43.678846
            }
        },
        {
            "type": "Feature",
            "id": 62,
            "geometry": {
                "type": "Point",
                "coordinates": [
                    105.89593600000001,
                    29.373705000000001
                ]
            },
            "properties": {
                "FID": 62,
                "objectId": 63,
                "name": "重庆财经职业学院",
                "lon": 105.89593600000001,
                "lat": 29.373705000000001
            }
        },
        {
            "type": "Feature",
            "id": 63,
            "geometry": {
                "type": "Point",
                "coordinates": [
                    116.462637,
                    33.919454000000002
                ]
            },
            "properties": {
                "FID": 63,
                "objectId": 64,
                "name": "永城职业学院",
                "lon": 116.462637,
                "lat": 33.919454000000002
            }
        },
        {
            "type": "Feature",
            "id": 64,
            "geometry": {
                "type": "Point",
                "coordinates": [
                    117.373976,
                    25.978076999999999
                ]
            },
            "properties": {
                "FID": 64,
                "objectId": 65,
                "name": "福建水利电力职业技术学院",
                "lon": 117.373976,
                "lat": 25.978076999999999
            }
        },
        {
            "type": "Feature",
            "id": 65,
            "geometry": {
                "type": "Point",
                "coordinates": [
                    108.45966,
                    22.755443
                ]
            },
            "properties": {
                "FID": 65,
                "objectId": 66,
                "name": "南宁学院",
                "lon": 108.45966,
                "lat": 22.755443
            }
        },
        {
            "type": "Feature",
            "id": 66,
            "geometry": {
                "type": "Point",
                "coordinates": [
                    113.457595,
                    34.769868000000002
                ]
            },
            "properties": {
                "FID": 66,
                "objectId": 67,
                "name": "郑州职业技术学院",
                "lon": 113.457595,
                "lat": 34.769868000000002
            }
        },
        {
            "type": "Feature",
            "id": 67,
            "geometry": {
                "type": "Point",
                "coordinates": [
                    112.57994100000001,
                    37.858429000000001
                ]
            },
            "properties": {
                "FID": 67,
                "objectId": 68,
                "name": "山西艺术职业学院",
                "lon": 112.57994100000001,
                "lat": 37.858429000000001
            }
        },
        {
            "type": "Feature",
            "id": 68,
            "geometry": {
                "type": "Point",
                "coordinates": [
                    123.899793,
                    42.311720000000001
                ]
            },
            "properties": {
                "FID": 68,
                "objectId": 69,
                "name": "辽宁职业学院",
                "lon": 123.899793,
                "lat": 42.311720000000001
            }
        },
        {
            "type": "Feature",
            "id": 69,
            "geometry": {
                "type": "Point",
                "coordinates": [
                    109.180346,
                    21.454021000000001
                ]
            },
            "properties": {
                "FID": 69,
                "objectId": 70,
                "name": "桂林电子科技大学（西校区）",
                "lon": 109.180346,
                "lat": 21.454021000000001
            }
        },
        {
            "type": "Feature",
            "id": 70,
            "geometry": {
                "type": "Point",
                "coordinates": [
                    114.00807399999999,
                    33.008822000000002
                ]
            },
            "properties": {
                "FID": 70,
                "objectId": 71,
                "name": "驻马店职业技术学院",
                "lon": 114.00807399999999,
                "lat": 33.008822000000002
            }
        },
        {
            "type": "Feature",
            "id": 71,
            "geometry": {
                "type": "Point",
                "coordinates": [
                    111.435281,
                    30.671802
                ]
            },
            "properties": {
                "FID": 71,
                "objectId": 72,
                "name": "武汉科技职业学院",
                "lon": 111.435281,
                "lat": 30.671802
            }
        },
        {
            "type": "Feature",
            "id": 72,
            "geometry": {
                "type": "Point",
                "coordinates": [
                    108.937645,
                    34.892304000000003
                ]
            },
            "properties": {
                "FID": 72,
                "objectId": 73,
                "name": "铜川职业技术学院",
                "lon": 108.937645,
                "lat": 34.892304000000003
            }
        },
        {
            "type": "Feature",
            "id": 73,
            "geometry": {
                "type": "Point",
                "coordinates": [
                    111.530406,
                    36.099094999999998
                ]
            },
            "properties": {
                "FID": 73,
                "objectId": 74,
                "name": "华北科技学院",
                "lon": 111.530406,
                "lat": 36.099094999999998
            }
        },
        {
            "type": "Feature",
            "id": 74,
            "geometry": {
                "type": "Point",
                "coordinates": [
                    108.078232,
                    34.267924000000001
                ]
            },
            "properties": {
                "FID": 74,
                "objectId": 75,
                "name": "西北农林科技大学（北校区）",
                "lon": 108.078232,
                "lat": 34.267924000000001
            }
        },
        {
            "type": "Feature",
            "id": 75,
            "geometry": {
                "type": "Point",
                "coordinates": [
                    108.96278700000001,
                    34.214723999999997
                ]
            },
            "properties": {
                "FID": 75,
                "objectId": 76,
                "name": "陕西师范大学（长安校区）",
                "lon": 108.96278700000001,
                "lat": 34.214723999999997
            }
        },
        {
            "type": "Feature",
            "id": 76,
            "geometry": {
                "type": "Point",
                "coordinates": [
                    110.300522,
                    25.103923000000002
                ]
            },
            "properties": {
                "FID": 76,
                "objectId": 77,
                "name": "广西师范大学(雁山校区）",
                "lon": 110.300522,
                "lat": 25.103923000000002
            }
        },
        {
            "type": "Feature",
            "id": 77,
            "geometry": {
                "type": "Point",
                "coordinates": [
                    112.61782100000001,
                    26.884257000000002
                ]
            },
            "properties": {
                "FID": 77,
                "objectId": 78,
                "name": "湖南工学院（南校区）",
                "lon": 112.61782100000001,
                "lat": 26.884257000000002
            }
        },
        {
            "type": "Feature",
            "id": 78,
            "geometry": {
                "type": "Point",
                "coordinates": [
                    113.99563999999999,
                    33.611480999999998
                ]
            },
            "properties": {
                "FID": 78,
                "objectId": 79,
                "name": "漯河食品职业学院",
                "lon": 113.99563999999999,
                "lat": 33.611480999999998
            }
        },
        {
            "type": "Feature",
            "id": 79,
            "geometry": {
                "type": "Point",
                "coordinates": [
                    116.829604,
                    35.550949000000003
                ]
            },
            "properties": {
                "FID": 79,
                "objectId": 80,
                "name": "济宁学院",
                "lon": 116.829604,
                "lat": 35.550949000000003
            }
        },
        {
            "type": "Feature",
            "id": 80,
            "geometry": {
                "type": "Point",
                "coordinates": [
                    109.219278,
                    34.662709
                ]
            },
            "properties": {
                "FID": 80,
                "objectId": 81,
                "name": "西安航空职业技术学院",
                "lon": 109.219278,
                "lat": 34.662709
            }
        },
        {
            "type": "Feature",
            "id": 81,
            "geometry": {
                "type": "Point",
                "coordinates": [
                    111.040836,
                    35.059559999999998
                ]
            },
            "properties": {
                "FID": 81,
                "objectId": 82,
                "name": "山西水利职业技术学院",
                "lon": 111.040836,
                "lat": 35.059559999999998
            }
        },
        {
            "type": "Feature",
            "id": 82,
            "geometry": {
                "type": "Point",
                "coordinates": [
                    120.18164899999999,
                    33.327027000000001
                ]
            },
            "properties": {
                "FID": 82,
                "objectId": 83,
                "name": "盐城工业职业技术学院",
                "lon": 120.18164899999999,
                "lat": 33.327027000000001
            }
        },
        {
            "type": "Feature",
            "id": 83,
            "geometry": {
                "type": "Point",
                "coordinates": [
                    118.26186800000001,
                    26.584506000000001
                ]
            },
            "properties": {
                "FID": 83,
                "objectId": 84,
                "name": "闽北职业技术学院",
                "lon": 118.26186800000001,
                "lat": 26.584506000000001
            }
        },
        {
            "type": "Feature",
            "id": 84,
            "geometry": {
                "type": "Point",
                "coordinates": [
                    114.047798,
                    35.285069999999997
                ]
            },
            "properties": {
                "FID": 84,
                "objectId": 85,
                "name": "新乡职业技术学院",
                "lon": 114.047798,
                "lat": 35.285069999999997
            }
        },
        {
            "type": "Feature",
            "id": 85,
            "geometry": {
                "type": "Point",
                "coordinates": [
                    129.51916299999999,
                    42.923374000000003
                ]
            },
            "properties": {
                "FID": 85,
                "objectId": 86,
                "name": "吉林医学院",
                "lon": 129.51916299999999,
                "lat": 42.923374000000003
            }
        },
        {
            "type": "Feature",
            "id": 86,
            "geometry": {
                "type": "Point",
                "coordinates": [
                    116.00860900000001,
                    29.727972000000001
                ]
            },
            "properties": {
                "FID": 86,
                "objectId": 87,
                "name": "九江学院（庐峰校区）",
                "lon": 116.00860900000001,
                "lat": 29.727972000000001
            }
        },
        {
            "type": "Feature",
            "id": 87,
            "geometry": {
                "type": "Point",
                "coordinates": [
                    117.27390200000001,
                    34.801856000000001
                ]
            },
            "properties": {
                "FID": 87,
                "objectId": 88,
                "name": "山东财经大学（燕山）",
                "lon": 117.27390200000001,
                "lat": 34.801856000000001
            }
        },
        {
            "type": "Feature",
            "id": 88,
            "geometry": {
                "type": "Point",
                "coordinates": [
                    118.79988299999999,
                    32.061408999999998
                ]
            },
            "properties": {
                "FID": 88,
                "objectId": 89,
                "name": "东南大学四牌楼校区",
                "lon": 118.79988299999999,
                "lat": 32.061408999999998
            }
        },
        {
            "type": "Feature",
            "id": 89,
            "geometry": {
                "type": "Point",
                "coordinates": [
                    110.305649,
                    25.287407000000002
                ]
            },
            "properties": {
                "FID": 89,
                "objectId": 90,
                "name": "广西师范大学(育才校区）",
                "lon": 110.305649,
                "lat": 25.287407000000002
            }
        },
        {
            "type": "Feature",
            "id": 90,
            "geometry": {
                "type": "Point",
                "coordinates": [
                    118.289596,
                    34.026484000000004
                ]
            },
            "properties": {
                "FID": 90,
                "objectId": 91,
                "name": "宿迁泽达职业技术学院",
                "lon": 118.289596,
                "lat": 34.026484000000004
            }
        },
        {
            "type": "Feature",
            "id": 91,
            "geometry": {
                "type": "Point",
                "coordinates": [
                    118.190377,
                    33.915833999999997
                ]
            },
            "properties": {
                "FID": 91,
                "objectId": 92,
                "name": "扬州大学（瘦西湖校区）",
                "lon": 118.190377,
                "lat": 33.915833999999997
            }
        },
        {
            "type": "Feature",
            "id": 92,
            "geometry": {
                "type": "Point",
                "coordinates": [
                    106.734996,
                    26.902826000000001
                ]
            },
            "properties": {
                "FID": 92,
                "objectId": 93,
                "name": "贵州城市职业技术学院",
                "lon": 106.734996,
                "lat": 26.902826000000001
            }
        },
        {
            "type": "Feature",
            "id": 93,
            "geometry": {
                "type": "Point",
                "coordinates": [
                    112.550864,
                    37.890276999999998
                ]
            },
            "properties": {
                "FID": 93,
                "objectId": 94,
                "name": "太原生态工程学院",
                "lon": 112.550864,
                "lat": 37.890276999999998
            }
        },
        {
            "type": "Feature",
            "id": 94,
            "geometry": {
                "type": "Point",
                "coordinates": [
                    104.90818,
                    25.098144999999999
                ]
            },
            "properties": {
                "FID": 94,
                "objectId": 95,
                "name": "兴义民族师范学院",
                "lon": 104.90818,
                "lat": 25.098144999999999
            }
        },
        {
            "type": "Feature",
            "id": 95,
            "geometry": {
                "type": "Point",
                "coordinates": [
                    106.382121,
                    38.464266000000002
                ]
            },
            "properties": {
                "FID": 95,
                "objectId": 96,
                "name": "西安交通大学（兴庆校区）",
                "lon": 106.382121,
                "lat": 38.464266000000002
            }
        },
        {
            "type": "Feature",
            "id": 96,
            "geometry": {
                "type": "Point",
                "coordinates": [
                    108.333562,
                    22.838486
                ]
            },
            "properties": {
                "FID": 96,
                "objectId": 97,
                "name": "南宁职业技术学院",
                "lon": 108.333562,
                "lat": 22.838486
            }
        },
        {
            "type": "Feature",
            "id": 97,
            "geometry": {
                "type": "Point",
                "coordinates": [
                    122.072051,
                    41.118200000000002
                ]
            },
            "properties": {
                "FID": 97,
                "objectId": 98,
                "name": "辽河石油职业技术学院",
                "lon": 122.072051,
                "lat": 41.118200000000002
            }
        },
        {
            "type": "Feature",
            "id": 98,
            "geometry": {
                "type": "Point",
                "coordinates": [
                    120.801017,
                    40.627296000000001
                ]
            },
            "properties": {
                "FID": 98,
                "objectId": 99,
                "name": "辽宁财贸学院",
                "lon": 120.801017,
                "lat": 40.627296000000001
            }
        },
        {
            "type": "Feature",
            "id": 99,
            "geometry": {
                "type": "Point",
                "coordinates": [
                    108.924274,
                    23.552254999999999
                ]
            },
            "properties": {
                "FID": 99,
                "objectId": 100,
                "name": "广西轻工高级技工学院",
                "lon": 108.924274,
                "lat": 23.552254999999999
            }
        },
        {
            "type": "Feature",
            "id": 100,
            "geometry": {
                "type": "Point",
                "coordinates": [
                    114.531025,
                    30.71874
                ]
            },
            "properties": {
                "FID": 100,
                "objectId": 101,
                "name": "武汉生物工程学院",
                "lon": 114.531025,
                "lat": 30.71874
            }
        },
        {
            "type": "Feature",
            "id": 101,
            "geometry": {
                "type": "Point",
                "coordinates": [
                    113.77087400000001,
                    34.404957000000003
                ]
            },
            "properties": {
                "FID": 101,
                "objectId": 102,
                "name": "郑州大学西亚斯国际学院",
                "lon": 113.77087400000001,
                "lat": 34.404957000000003
            }
        },
        {
            "type": "Feature",
            "id": 102,
            "geometry": {
                "type": "Point",
                "coordinates": [
                    87.551638999999994,
                    43.893127999999997
                ]
            },
            "properties": {
                "FID": 102,
                "objectId": 103,
                "name": "新疆财经大学商务学院",
                "lon": 87.551638999999994,
                "lat": 43.893127999999997
            }
        },
        {
            "type": "Feature",
            "id": 103,
            "geometry": {
                "type": "Point",
                "coordinates": [
                    119.196766,
                    34.592699000000003
                ]
            },
            "properties": {
                "FID": 103,
                "objectId": 104,
                "name": "淮海工学院",
                "lon": 119.196766,
                "lat": 34.592699000000003
            }
        },
        {
            "type": "Feature",
            "id": 104,
            "geometry": {
                "type": "Point",
                "coordinates": [
                    122.866418,
                    42.016776
                ]
            },
            "properties": {
                "FID": 104,
                "objectId": 105,
                "name": "吉林大学（新民校区）",
                "lon": 122.866418,
                "lat": 42.016776
            }
        },
        {
            "type": "Feature",
            "id": 105,
            "geometry": {
                "type": "Point",
                "coordinates": [
                    117.02510700000001,
                    25.121241000000001
                ]
            },
            "properties": {
                "FID": 105,
                "objectId": 106,
                "name": "龙岩技师学院",
                "lon": 117.02510700000001,
                "lat": 25.121241000000001
            }
        },
        {
            "type": "Feature",
            "id": 106,
            "geometry": {
                "type": "Point",
                "coordinates": [
                    103.89084099999999,
                    30.483985000000001
                ]
            },
            "properties": {
                "FID": 106,
                "objectId": 107,
                "name": "成都职业技术学院（花源校区）",
                "lon": 103.89084099999999,
                "lat": 30.483985000000001
            }
        },
        {
            "type": "Feature",
            "id": 107,
            "geometry": {
                "type": "Point",
                "coordinates": [
                    115.792782,
                    28.708788999999999
                ]
            },
            "properties": {
                "FID": 107,
                "objectId": 108,
                "name": "江西旅游商贸职业技术学院",
                "lon": 115.792782,
                "lat": 28.708788999999999
            }
        },
        {
            "type": "Feature",
            "id": 108,
            "geometry": {
                "type": "Point",
                "coordinates": [
                    115.67608199999999,
                    27.757258
                ]
            },
            "properties": {
                "FID": 108,
                "objectId": 109,
                "name": "江西科技师范大学（枫林校区）",
                "lon": 115.67608199999999,
                "lat": 27.757258
            }
        },
        {
            "type": "Feature",
            "id": 109,
            "geometry": {
                "type": "Point",
                "coordinates": [
                    123.92982000000001,
                    41.877304000000002
                ]
            },
            "properties": {
                "FID": 109,
                "objectId": 110,
                "name": "抚顺矿务局职工工学院",
                "lon": 123.92982000000001,
                "lat": 41.877304000000002
            }
        },
        {
            "type": "Feature",
            "id": 110,
            "geometry": {
                "type": "Point",
                "coordinates": [
                    104.190488,
                    30.831672000000001
                ]
            },
            "properties": {
                "FID": 110,
                "objectId": 111,
                "name": "西南石油大学（成都校区）",
                "lon": 104.190488,
                "lat": 30.831672000000001
            }
        },
        {
            "type": "Feature",
            "id": 111,
            "geometry": {
                "type": "Point",
                "coordinates": [
                    109.02284400000001,
                    34.250903999999998
                ]
            },
            "properties": {
                "FID": 111,
                "objectId": 112,
                "name": "西安建筑科技大学",
                "lon": 109.02284400000001,
                "lat": 34.250903999999998
            }
        },
        {
            "type": "Feature",
            "id": 112,
            "geometry": {
                "type": "Point",
                "coordinates": [
                    112.662825,
                    37.781464999999997
                ]
            },
            "properties": {
                "FID": 112,
                "objectId": 113,
                "name": "山西财贸职业技术学院",
                "lon": 112.662825,
                "lat": 37.781464999999997
            }
        },
        {
            "type": "Feature",
            "id": 113,
            "geometry": {
                "type": "Point",
                "coordinates": [
                    118.28080300000001,
                    24.675484999999998
                ]
            },
            "properties": {
                "FID": 113,
                "objectId": 114,
                "name": "厦门大学（翔安校区）",
                "lon": 118.28080300000001,
                "lat": 24.675484999999998
            }
        },
        {
            "type": "Feature",
            "id": 114,
            "geometry": {
                "type": "Point",
                "coordinates": [
                    112.091937,
                    31.951277999999999
                ]
            },
            "properties": {
                "FID": 114,
                "objectId": 115,
                "name": "湖北文理学院理工学院（尹集校区）",
                "lon": 112.091937,
                "lat": 31.951277999999999
            }
        },
        {
            "type": "Feature",
            "id": 115,
            "geometry": {
                "type": "Point",
                "coordinates": [
                    112.965389,
                    27.783749
                ]
            },
            "properties": {
                "FID": 115,
                "objectId": 116,
                "name": "湖南第一师范学院（东方红校区）",
                "lon": 112.965389,
                "lat": 27.783749
            }
        },
        {
            "type": "Feature",
            "id": 116,
            "geometry": {
                "type": "Point",
                "coordinates": [
                    116.671566,
                    23.661092
                ]
            },
            "properties": {
                "FID": 116,
                "objectId": 117,
                "name": "韩山师范学院",
                "lon": 116.671566,
                "lat": 23.661092
            }
        },
        {
            "type": "Feature",
            "id": 117,
            "geometry": {
                "type": "Point",
                "coordinates": [
                    113.537369,
                    22.255354000000001
                ]
            },
            "properties": {
                "FID": 117,
                "objectId": 118,
                "name": "暨南大学（南校区）",
                "lon": 113.537369,
                "lat": 22.255354000000001
            }
        },
        {
            "type": "Feature",
            "id": 118,
            "geometry": {
                "type": "Point",
                "coordinates": [
                    117.651732,
                    24.513382
                ]
            },
            "properties": {
                "FID": 118,
                "objectId": 119,
                "name": "闽南师范大学",
                "lon": 117.651732,
                "lat": 24.513382
            }
        },
        {
            "type": "Feature",
            "id": 119,
            "geometry": {
                "type": "Point",
                "coordinates": [
                    114.318427,
                    29.837056
                ]
            },
            "properties": {
                "FID": 119,
                "objectId": 120,
                "name": "湖北生物科技职业技术学院",
                "lon": 114.318427,
                "lat": 29.837056
            }
        },
        {
            "type": "Feature",
            "id": 120,
            "geometry": {
                "type": "Point",
                "coordinates": [
                    118.86430799999999,
                    25.272943999999999
                ]
            },
            "properties": {
                "FID": 120,
                "objectId": 121,
                "name": "湄洲湾职业技术学院",
                "lon": 118.86430799999999,
                "lat": 25.272943999999999
            }
        },
        {
            "type": "Feature",
            "id": 121,
            "geometry": {
                "type": "Point",
                "coordinates": [
                    115.032437,
                    30.214696
                ]
            },
            "properties": {
                "FID": 121,
                "objectId": 122,
                "name": "湖北理工学院",
                "lon": 115.032437,
                "lat": 30.214696
            }
        },
        {
            "type": "Feature",
            "id": 122,
            "geometry": {
                "type": "Point",
                "coordinates": [
                    110.416757,
                    21.21097
                ]
            },
            "properties": {
                "FID": 122,
                "objectId": 123,
                "name": "广东医学院湛江校区",
                "lon": 110.416757,
                "lat": 21.21097
            }
        },
        {
            "type": "Feature",
            "id": 123,
            "geometry": {
                "type": "Point",
                "coordinates": [
                    105.90854,
                    26.250129000000001
                ]
            },
            "properties": {
                "FID": 123,
                "objectId": 124,
                "name": "安顺学院",
                "lon": 105.90854,
                "lat": 26.250129000000001
            }
        },
        {
            "type": "Feature",
            "id": 124,
            "geometry": {
                "type": "Point",
                "coordinates": [
                    108.296367,
                    22.844154
                ]
            },
            "properties": {
                "FID": 124,
                "objectId": 125,
                "name": "广西大学",
                "lon": 108.296367,
                "lat": 22.844154
            }
        },
        {
            "type": "Feature",
            "id": 125,
            "geometry": {
                "type": "Point",
                "coordinates": [
                    106.113595,
                    38.502741
                ]
            },
            "properties": {
                "FID": 125,
                "objectId": 126,
                "name": "北方民族大学",
                "lon": 106.113595,
                "lat": 38.502741
            }
        },
        {
            "type": "Feature",
            "id": 126,
            "geometry": {
                "type": "Point",
                "coordinates": [
                    122.233391,
                    40.668650999999997
                ]
            },
            "properties": {
                "FID": 126,
                "objectId": 127,
                "name": "营口大学（南区）",
                "lon": 122.233391,
                "lat": 40.668650999999997
            }
        },
        {
            "type": "Feature",
            "id": 127,
            "geometry": {
                "type": "Point",
                "coordinates": [
                    102.69365000000001,
                    25.048563000000001
                ]
            },
            "properties": {
                "FID": 127,
                "objectId": 128,
                "name": "昆明医科大学",
                "lon": 102.69365000000001,
                "lat": 25.048563000000001
            }
        },
        {
            "type": "Feature",
            "id": 128,
            "geometry": {
                "type": "Point",
                "coordinates": [
                    101.55533200000001,
                    26.610869000000001
                ]
            },
            "properties": {
                "FID": 128,
                "objectId": 129,
                "name": "安徽警官职业学院（西区）",
                "lon": 101.55533200000001,
                "lat": 26.610869000000001
            }
        },
        {
            "type": "Feature",
            "id": 129,
            "geometry": {
                "type": "Point",
                "coordinates": [
                    117.106989,
                    39.097368000000003
                ]
            },
            "properties": {
                "FID": 129,
                "objectId": 130,
                "name": "天津农学院（西校区）",
                "lon": 117.106989,
                "lat": 39.097368000000003
            }
        },
        {
            "type": "Feature",
            "id": 130,
            "geometry": {
                "type": "Point",
                "coordinates": [
                    111.313484,
                    30.712724000000001
                ]
            },
            "properties": {
                "FID": 130,
                "objectId": 131,
                "name": "三峡电力职业学院",
                "lon": 111.313484,
                "lat": 30.712724000000001
            }
        },
        {
            "type": "Feature",
            "id": 131,
            "geometry": {
                "type": "Point",
                "coordinates": [
                    103.628733,
                    36.096916999999998
                ]
            },
            "properties": {
                "FID": 131,
                "objectId": 132,
                "name": "兰州石化学院",
                "lon": 103.628733,
                "lat": 36.096916999999998
            }
        },
        {
            "type": "Feature",
            "id": 132,
            "geometry": {
                "type": "Point",
                "coordinates": [
                    112.447525,
                    34.657367999999998
                ]
            },
            "properties": {
                "FID": 132,
                "objectId": 133,
                "name": "洛阳铁路工程学校（洛理伊滨校区）",
                "lon": 112.447525,
                "lat": 34.657367999999998
            }
        },
        {
            "type": "Feature",
            "id": 133,
            "geometry": {
                "type": "Point",
                "coordinates": [
                    121.617141,
                    38.903030000000001
                ]
            },
            "properties": {
                "FID": 133,
                "objectId": 134,
                "name": "大连枫叶职业技术学院",
                "lon": 121.617141,
                "lat": 38.903030000000001
            }
        },
        {
            "type": "Feature",
            "id": 134,
            "geometry": {
                "type": "Point",
                "coordinates": [
                    116.352971,
                    39.937328999999998
                ]
            },
            "properties": {
                "FID": 134,
                "objectId": 135,
                "name": "北京涉外经济专修学院",
                "lon": 116.352971,
                "lat": 39.937328999999998
            }
        },
        {
            "type": "Feature",
            "id": 135,
            "geometry": {
                "type": "Point",
                "coordinates": [
                    125.150149,
                    42.986364999999999
                ]
            },
            "properties": {
                "FID": 135,
                "objectId": 136,
                "name": "延安大学西安创新学院",
                "lon": 125.150149,
                "lat": 42.986364999999999
            }
        },
        {
            "type": "Feature",
            "id": 136,
            "geometry": {
                "type": "Point",
                "coordinates": [
                    113.43818,
                    35.093964
                ]
            },
            "properties": {
                "FID": 136,
                "objectId": 137,
                "name": "黄河交通学院（武陟）",
                "lon": 113.43818,
                "lat": 35.093964
            }
        },
        {
            "type": "Feature",
            "id": 137,
            "geometry": {
                "type": "Point",
                "coordinates": [
                    118.009422,
                    27.725629000000001
                ]
            },
            "properties": {
                "FID": 137,
                "objectId": 138,
                "name": "武夷山职业学院",
                "lon": 118.009422,
                "lat": 27.725629000000001
            }
        },
        {
            "type": "Feature",
            "id": 138,
            "geometry": {
                "type": "Point",
                "coordinates": [
                    117.07847099999999,
                    39.40775
                ]
            },
            "properties": {
                "FID": 138,
                "objectId": 139,
                "name": "天津天狮学院",
                "lon": 117.07847099999999,
                "lat": 39.40775
            }
        },
        {
            "type": "Feature",
            "id": 139,
            "geometry": {
                "type": "Point",
                "coordinates": [
                    111.653718,
                    29.012149000000001
                ]
            },
            "properties": {
                "FID": 139,
                "objectId": 140,
                "name": "常德幼儿师范高等专科学校",
                "lon": 111.653718,
                "lat": 29.012149000000001
            }
        },
        {
            "type": "Feature",
            "id": 140,
            "geometry": {
                "type": "Point",
                "coordinates": [
                    119.96139599999999,
                    31.684342999999998
                ]
            },
            "properties": {
                "FID": 140,
                "objectId": 141,
                "name": "常州信息职业技术学院",
                "lon": 119.96139599999999,
                "lat": 31.684342999999998
            }
        },
        {
            "type": "Feature",
            "id": 141,
            "geometry": {
                "type": "Point",
                "coordinates": [
                    113.596137,
                    24.794249000000001
                ]
            },
            "properties": {
                "FID": 141,
                "objectId": 142,
                "name": "韶关学院医学院",
                "lon": 113.596137,
                "lat": 24.794249000000001
            }
        },
        {
            "type": "Feature",
            "id": 142,
            "geometry": {
                "type": "Point",
                "coordinates": [
                    104.050442,
                    30.653969
                ]
            },
            "properties": {
                "FID": 142,
                "objectId": 143,
                "name": "成都体育学院",
                "lon": 104.050442,
                "lat": 30.653969
            }
        },
        {
            "type": "Feature",
            "id": 143,
            "geometry": {
                "type": "Point",
                "coordinates": [
                    114.353622,
                    30.564859999999999
                ]
            },
            "properties": {
                "FID": 143,
                "objectId": 144,
                "name": "武昌首义学院",
                "lon": 114.353622,
                "lat": 30.564859999999999
            }
        },
        {
            "type": "Feature",
            "id": 144,
            "geometry": {
                "type": "Point",
                "coordinates": [
                    111.313018,
                    30.694759999999999
                ]
            },
            "properties": {
                "FID": 144,
                "objectId": 145,
                "name": "三峡大学",
                "lon": 111.313018,
                "lat": 30.694759999999999
            }
        },
        {
            "type": "Feature",
            "id": 145,
            "geometry": {
                "type": "Point",
                "coordinates": [
                    102.696074,
                    25.062460999999999
                ]
            },
            "properties": {
                "FID": 145,
                "objectId": 146,
                "name": "华南建设学院西院",
                "lon": 102.696074,
                "lat": 25.062460999999999
            }
        },
        {
            "type": "Feature",
            "id": 146,
            "geometry": {
                "type": "Point",
                "coordinates": [
                    120.592037,
                    31.223977000000001
                ]
            },
            "properties": {
                "FID": 146,
                "objectId": 147,
                "name": "苏州大学文正学院",
                "lon": 120.592037,
                "lat": 31.223977000000001
            }
        },
        {
            "type": "Feature",
            "id": 147,
            "geometry": {
                "type": "Point",
                "coordinates": [
                    120.128467,
                    30.878793000000002
                ]
            },
            "properties": {
                "FID": 147,
                "objectId": 148,
                "name": "湖州师范学院",
                "lon": 120.128467,
                "lat": 30.878793000000002
            }
        },
        {
            "type": "Feature",
            "id": 148,
            "geometry": {
                "type": "Point",
                "coordinates": [
                    120.640092,
                    31.141124000000001
                ]
            },
            "properties": {
                "FID": 148,
                "objectId": 149,
                "name": "苏州信息职业技术学院",
                "lon": 120.640092,
                "lat": 31.141124000000001
            }
        },
        {
            "type": "Feature",
            "id": 149,
            "geometry": {
                "type": "Point",
                "coordinates": [
                    106.804143,
                    26.648779000000001
                ]
            },
            "properties": {
                "FID": 149,
                "objectId": 150,
                "name": "贵州师范学院",
                "lon": 106.804143,
                "lat": 26.648779000000001
            }
        },
        {
            "type": "Feature",
            "id": 150,
            "geometry": {
                "type": "Point",
                "coordinates": [
                    112.501226,
                    32.9741
                ]
            },
            "properties": {
                "FID": 150,
                "objectId": 151,
                "name": "南阳医学高等专科学校",
                "lon": 112.501226,
                "lat": 32.9741
            }
        },
        {
            "type": "Feature",
            "id": 151,
            "geometry": {
                "type": "Point",
                "coordinates": [
                    116.500907,
                    35.726959999999998
                ]
            },
            "properties": {
                "FID": 151,
                "objectId": 152,
                "name": "山东外事翻译职业学院",
                "lon": 116.500907,
                "lat": 35.726959999999998
            }
        },
        {
            "type": "Feature",
            "id": 152,
            "geometry": {
                "type": "Point",
                "coordinates": [
                    114.386771,
                    36.040134999999999
                ]
            },
            "properties": {
                "FID": 152,
                "objectId": 153,
                "name": "安阳职业技术学院",
                "lon": 114.386771,
                "lat": 36.040134999999999
            }
        },
        {
            "type": "Feature",
            "id": 153,
            "geometry": {
                "type": "Point",
                "coordinates": [
                    110.78090899999999,
                    19.750947
                ]
            },
            "properties": {
                "FID": 153,
                "objectId": 154,
                "name": "中国矿业大学(文昌校区）",
                "lon": 110.78090899999999,
                "lat": 19.750947
            }
        },
        {
            "type": "Feature",
            "id": 154,
            "geometry": {
                "type": "Point",
                "coordinates": [
                    80.952156000000002,
                    44.968820000000001
                ]
            },
            "properties": {
                "FID": 154,
                "objectId": 155,
                "name": "新疆师范大学（温泉校区）",
                "lon": 80.952156000000002,
                "lat": 44.968820000000001
            }
        },
        {
            "type": "Feature",
            "id": 155,
            "geometry": {
                "type": "Point",
                "coordinates": [
                    103.823222,
                    30.694732999999999
                ]
            },
            "properties": {
                "FID": 155,
                "objectId": 156,
                "name": "四川交通职业技术学院",
                "lon": 103.823222,
                "lat": 30.694732999999999
            }
        },
        {
            "type": "Feature",
            "id": 156,
            "geometry": {
                "type": "Point",
                "coordinates": [
                    113.83258600000001,
                    34.045732000000001
                ]
            },
            "properties": {
                "FID": 156,
                "objectId": 157,
                "name": "许昌学院",
                "lon": 113.83258600000001,
                "lat": 34.045732000000001
            }
        },
        {
            "type": "Feature",
            "id": 157,
            "geometry": {
                "type": "Point",
                "coordinates": [
                    108.73450200000001,
                    34.366822999999997
                ]
            },
            "properties": {
                "FID": 157,
                "objectId": 158,
                "name": "咸阳师范学院",
                "lon": 108.73450200000001,
                "lat": 34.366822999999997
            }
        },
        {
            "type": "Feature",
            "id": 158,
            "geometry": {
                "type": "Point",
                "coordinates": [
                    107.164519,
                    34.371018999999997
                ]
            },
            "properties": {
                "FID": 158,
                "objectId": 159,
                "name": "西安科技大学（北校区）",
                "lon": 107.164519,
                "lat": 34.371018999999997
            }
        },
        {
            "type": "Feature",
            "id": 159,
            "geometry": {
                "type": "Point",
                "coordinates": [
                    108.907304,
                    34.372466000000003
                ]
            },
            "properties": {
                "FID": 159,
                "objectId": 160,
                "name": "长安大学（本部）",
                "lon": 108.907304,
                "lat": 34.372466000000003
            }
        },
        {
            "type": "Feature",
            "id": 160,
            "geometry": {
                "type": "Point",
                "coordinates": [
                    114.06622400000001,
                    35.414079999999998
                ]
            },
            "properties": {
                "FID": 160,
                "objectId": 161,
                "name": "新乡医学院",
                "lon": 114.06622400000001,
                "lat": 35.414079999999998
            }
        },
        {
            "type": "Feature",
            "id": 161,
            "geometry": {
                "type": "Point",
                "coordinates": [
                    119.1026,
                    36.689025000000001
                ]
            },
            "properties": {
                "FID": 161,
                "objectId": 162,
                "name": "山东经贸职业学院",
                "lon": 119.1026,
                "lat": 36.689025000000001
            }
        },
        {
            "type": "Feature",
            "id": 162,
            "geometry": {
                "type": "Point",
                "coordinates": [
                    104.762547,
                    26.731157
                ]
            },
            "properties": {
                "FID": 162,
                "objectId": 163,
                "name": "钟山职业技术学院",
                "lon": 104.762547,
                "lat": 26.731157
            }
        },
        {
            "type": "Feature",
            "id": 163,
            "geometry": {
                "type": "Point",
                "coordinates": [
                    123.724768,
                    41.847803999999996
                ]
            },
            "properties": {
                "FID": 163,
                "objectId": 164,
                "name": "沈阳工学院",
                "lon": 123.724768,
                "lat": 41.847803999999996
            }
        },
        {
            "type": "Feature",
            "id": 164,
            "geometry": {
                "type": "Point",
                "coordinates": [
                    112.900852,
                    28.135038999999999
                ]
            },
            "properties": {
                "FID": 164,
                "objectId": 165,
                "name": "湖南中医药大学（含浦校区）",
                "lon": 112.900852,
                "lat": 28.135038999999999
            }
        },
        {
            "type": "Feature",
            "id": 165,
            "geometry": {
                "type": "Point",
                "coordinates": [
                    108.389644,
                    30.801269000000001
                ]
            },
            "properties": {
                "FID": 165,
                "objectId": 166,
                "name": "重庆三峡学院（老区）",
                "lon": 108.389644,
                "lat": 30.801269000000001
            }
        },
        {
            "type": "Feature",
            "id": 166,
            "geometry": {
                "type": "Point",
                "coordinates": [
                    112.524233,
                    37.860667999999997
                ]
            },
            "properties": {
                "FID": 166,
                "objectId": 167,
                "name": "山西省财政税务专科学校",
                "lon": 112.524233,
                "lat": 37.860667999999997
            }
        },
        {
            "type": "Feature",
            "id": 167,
            "geometry": {
                "type": "Point",
                "coordinates": [
                    112.551467,
                    33.013001000000003
                ]
            },
            "properties": {
                "FID": 167,
                "objectId": 168,
                "name": "河南工业职业技术学院",
                "lon": 112.551467,
                "lat": 33.013001000000003
            }
        },
        {
            "type": "Feature",
            "id": 168,
            "geometry": {
                "type": "Point",
                "coordinates": [
                    115.75048,
                    28.800557000000001
                ]
            },
            "properties": {
                "FID": 168,
                "objectId": 169,
                "name": "江西中医药大学科技学院（湾里区）",
                "lon": 115.75048,
                "lat": 28.800557000000001
            }
        },
        {
            "type": "Feature",
            "id": 169,
            "geometry": {
                "type": "Point",
                "coordinates": [
                    113.995215,
                    22.413381000000001
                ]
            },
            "properties": {
                "FID": 169,
                "objectId": 170,
                "name": "岭南大学",
                "lon": 113.995215,
                "lat": 22.413381000000001
            }
        },
        {
            "type": "Feature",
            "id": 170,
            "geometry": {
                "type": "Point",
                "coordinates": [
                    87.431077999999999,
                    43.865814999999998
                ]
            },
            "properties": {
                "FID": 170,
                "objectId": 171,
                "name": "乌鲁木齐职业大学（西校区）",
                "lon": 87.431077999999999,
                "lat": 43.865814999999998
            }
        },
        {
            "type": "Feature",
            "id": 171,
            "geometry": {
                "type": "Point",
                "coordinates": [
                    117.18483500000001,
                    34.208741000000003
                ]
            },
            "properties": {
                "FID": 171,
                "objectId": 172,
                "name": "江苏建筑职业技术学院",
                "lon": 117.18483500000001,
                "lat": 34.208741000000003
            }
        },
        {
            "type": "Feature",
            "id": 172,
            "geometry": {
                "type": "Point",
                "coordinates": [
                    118.17727600000001,
                    24.750378000000001
                ]
            },
            "properties": {
                "FID": 172,
                "objectId": 173,
                "name": "厦门东海学院",
                "lon": 118.17727600000001,
                "lat": 24.750378000000001
            }
        },
        {
            "type": "Feature",
            "id": 173,
            "geometry": {
                "type": "Point",
                "coordinates": [
                    116.646001,
                    39.935223000000001
                ]
            },
            "properties": {
                "FID": 173,
                "objectId": 174,
                "name": "北京物资学院",
                "lon": 116.646001,
                "lat": 39.935223000000001
            }
        },
        {
            "type": "Feature",
            "id": 174,
            "geometry": {
                "type": "Point",
                "coordinates": [
                    107.49052,
                    31.217333
                ]
            },
            "properties": {
                "FID": 174,
                "objectId": 175,
                "name": "四川文理学院（新校区）",
                "lon": 107.49052,
                "lat": 31.217333
            }
        },
        {
            "type": "Feature",
            "id": 175,
            "geometry": {
                "type": "Point",
                "coordinates": [
                    120.16310199999999,
                    33.390860000000004
                ]
            },
            "properties": {
                "FID": 175,
                "objectId": 176,
                "name": "盐城师范学院（新长校区）",
                "lon": 120.16310199999999,
                "lat": 33.390860000000004
            }
        },
        {
            "type": "Feature",
            "id": 176,
            "geometry": {
                "type": "Point",
                "coordinates": [
                    123.356735,
                    41.788207999999997
                ]
            },
            "properties": {
                "FID": 176,
                "objectId": 177,
                "name": "沈阳工业大学（兴顺校区）",
                "lon": 123.356735,
                "lat": 41.788207999999997
            }
        },
        {
            "type": "Feature",
            "id": 177,
            "geometry": {
                "type": "Point",
                "coordinates": [
                    123.75260400000001,
                    42.256258000000003
                ]
            },
            "properties": {
                "FID": 177,
                "objectId": 178,
                "name": "铁岭师范高等专科学校",
                "lon": 123.75260400000001,
                "lat": 42.256258000000003
            }
        },
        {
            "type": "Feature",
            "id": 178,
            "geometry": {
                "type": "Point",
                "coordinates": [
                    123.00085,
                    41.083258999999998
                ]
            },
            "properties": {
                "FID": 178,
                "objectId": 179,
                "name": "鞍山师范学院",
                "lon": 123.00085,
                "lat": 41.083258999999998
            }
        },
        {
            "type": "Feature",
            "id": 179,
            "geometry": {
                "type": "Point",
                "coordinates": [
                    113.000139,
                    28.145198000000001
                ]
            },
            "properties": {
                "FID": 179,
                "objectId": 180,
                "name": "中南大学（升华公寓）",
                "lon": 113.000139,
                "lat": 28.145198000000001
            }
        },
        {
            "type": "Feature",
            "id": 180,
            "geometry": {
                "type": "Point",
                "coordinates": [
                    87.625039000000001,
                    43.771628999999997
                ]
            },
            "properties": {
                "FID": 180,
                "objectId": 181,
                "name": "新疆大学（本部）",
                "lon": 87.625039000000001,
                "lat": 43.771628999999997
            }
        },
        {
            "type": "Feature",
            "id": 181,
            "geometry": {
                "type": "Point",
                "coordinates": [
                    117.011751,
                    36.680622
                ]
            },
            "properties": {
                "FID": 181,
                "objectId": 182,
                "name": "济南工程职业技术学院",
                "lon": 117.011751,
                "lat": 36.680622
            }
        },
        {
            "type": "Feature",
            "id": 182,
            "geometry": {
                "type": "Point",
                "coordinates": [
                    119.992116,
                    31.791134
                ]
            },
            "properties": {
                "FID": 182,
                "objectId": 183,
                "name": "常州工程职业技术学院",
                "lon": 119.992116,
                "lat": 31.791134
            }
        },
        {
            "type": "Feature",
            "id": 183,
            "geometry": {
                "type": "Point",
                "coordinates": [
                    113.355887,
                    23.145512
                ]
            },
            "properties": {
                "FID": 183,
                "objectId": 184,
                "name": "华南师范大学(大学城校区）",
                "lon": 113.355887,
                "lat": 23.145512
            }
        },
        {
            "type": "Feature",
            "id": 184,
            "geometry": {
                "type": "Point",
                "coordinates": [
                    111.270707,
                    28.917818
                ]
            },
            "properties": {
                "FID": 184,
                "objectId": 185,
                "name": "武夷学院（桃源校区）",
                "lon": 111.270707,
                "lat": 28.917818
            }
        },
        {
            "type": "Feature",
            "id": 185,
            "geometry": {
                "type": "Point",
                "coordinates": [
                    117.12514899999999,
                    36.200795999999997
                ]
            },
            "properties": {
                "FID": 185,
                "objectId": 186,
                "name": "山东农业大学（东校区）",
                "lon": 117.12514899999999,
                "lat": 36.200795999999997
            }
        },
        {
            "type": "Feature",
            "id": 186,
            "geometry": {
                "type": "Point",
                "coordinates": [
                    121.078439,
                    40.863726
                ]
            },
            "properties": {
                "FID": 186,
                "objectId": 187,
                "name": "锦州商务职业学院",
                "lon": 121.078439,
                "lat": 40.863726
            }
        },
        {
            "type": "Feature",
            "id": 187,
            "geometry": {
                "type": "Point",
                "coordinates": [
                    112.58868099999999,
                    37.430008999999998
                ]
            },
            "properties": {
                "FID": 187,
                "objectId": 188,
                "name": "山西农业大学",
                "lon": 112.58868099999999,
                "lat": 37.430008999999998
            }
        },
        {
            "type": "Feature",
            "id": 188,
            "geometry": {
                "type": "Point",
                "coordinates": [
                    121.142653,
                    31.416668999999999
                ]
            },
            "properties": {
                "FID": 188,
                "objectId": 189,
                "name": "健雄职业技术学院",
                "lon": 121.142653,
                "lat": 31.416668999999999
            }
        },
        {
            "type": "Feature",
            "id": 189,
            "geometry": {
                "type": "Point",
                "coordinates": [
                    107.416865,
                    33.942971999999997
                ]
            },
            "properties": {
                "FID": 189,
                "objectId": 190,
                "name": "西北大学太白校区",
                "lon": 107.416865,
                "lat": 33.942971999999997
            }
        },
        {
            "type": "Feature",
            "id": 190,
            "geometry": {
                "type": "Point",
                "coordinates": [
                    119.33187100000001,
                    26.062006
                ]
            },
            "properties": {
                "FID": 190,
                "objectId": 191,
                "name": "省电力职业技能学院",
                "lon": 119.33187100000001,
                "lat": 26.062006
            }
        },
        {
            "type": "Feature",
            "id": 191,
            "geometry": {
                "type": "Point",
                "coordinates": [
                    121.973871,
                    24.086957000000002
                ]
            },
            "properties": {
                "FID": 191,
                "objectId": 192,
                "name": "国立台湾大学",
                "lon": 121.973871,
                "lat": 24.086957000000002
            }
        },
        {
            "type": "Feature",
            "id": 192,
            "geometry": {
                "type": "Point",
                "coordinates": [
                    110.252354,
                    21.365877999999999
                ]
            },
            "properties": {
                "FID": 192,
                "objectId": 193,
                "name": "湛江师范学院基础教育学院（北校区）",
                "lon": 110.252354,
                "lat": 21.365877999999999
            }
        },
        {
            "type": "Feature",
            "id": 193,
            "geometry": {
                "type": "Point",
                "coordinates": [
                    115.624549,
                    34.400801000000001
                ]
            },
            "properties": {
                "FID": 193,
                "objectId": 194,
                "name": "商丘医学高等专科学校",
                "lon": 115.624549,
                "lat": 34.400801000000001
            }
        },
        {
            "type": "Feature",
            "id": 194,
            "geometry": {
                "type": "Point",
                "coordinates": [
                    113.045255,
                    25.821149999999999
                ]
            },
            "properties": {
                "FID": 194,
                "objectId": 195,
                "name": "湖南职业化工技术学院",
                "lon": 113.045255,
                "lat": 25.821149999999999
            }
        },
        {
            "type": "Feature",
            "id": 195,
            "geometry": {
                "type": "Point",
                "coordinates": [
                    123.54276900000001,
                    41.630132000000003
                ]
            },
            "properties": {
                "FID": 195,
                "objectId": 196,
                "name": "沈阳城市学院",
                "lon": 123.54276900000001,
                "lat": 41.630132000000003
            }
        },
        {
            "type": "Feature",
            "id": 196,
            "geometry": {
                "type": "Point",
                "coordinates": [
                    118.067763,
                    24.451530999999999
                ]
            },
            "properties": {
                "FID": 196,
                "objectId": 197,
                "name": "福州大学（铜盘校区）",
                "lon": 118.067763,
                "lat": 24.451530999999999
            }
        },
        {
            "type": "Feature",
            "id": 197,
            "geometry": {
                "type": "Point",
                "coordinates": [
                    106.077094,
                    30.819980999999999
                ]
            },
            "properties": {
                "FID": 197,
                "objectId": 198,
                "name": "西华师范大学",
                "lon": 106.077094,
                "lat": 30.819980999999999
            }
        },
        {
            "type": "Feature",
            "id": 198,
            "geometry": {
                "type": "Point",
                "coordinates": [
                    113.331447,
                    22.815093000000001
                ]
            },
            "properties": {
                "FID": 198,
                "objectId": 199,
                "name": "顺德职业技术学院",
                "lon": 113.331447,
                "lat": 22.815093000000001
            }
        },
        {
            "type": "Feature",
            "id": 199,
            "geometry": {
                "type": "Point",
                "coordinates": [
                    123.930643,
                    41.902921999999997
                ]
            },
            "properties": {
                "FID": 199,
                "objectId": 200,
                "name": "抚顺师范高等专科学校",
                "lon": 123.930643,
                "lat": 41.902921999999997
            }
        },
        {
            "type": "Feature",
            "id": 200,
            "geometry": {
                "type": "Point",
                "coordinates": [
                    87.639426,
                    43.828139
                ]
            },
            "properties": {
                "FID": 200,
                "objectId": 201,
                "name": "新疆教育学院",
                "lon": 87.639426,
                "lat": 43.828139
            }
        },
        {
            "type": "Feature",
            "id": 201,
            "geometry": {
                "type": "Point",
                "coordinates": [
                    125.673951,
                    43.541268000000002
                ]
            },
            "properties": {
                "FID": 201,
                "objectId": 202,
                "name": "吉林农业大学发展学院",
                "lon": 125.673951,
                "lat": 43.541268000000002
            }
        },
        {
            "type": "Feature",
            "id": 202,
            "geometry": {
                "type": "Point",
                "coordinates": [
                    120.451148,
                    41.565669999999997
                ]
            },
            "properties": {
                "FID": 202,
                "objectId": 203,
                "name": "朝阳师范高等专科学校",
                "lon": 120.451148,
                "lat": 41.565669999999997
            }
        },
        {
            "type": "Feature",
            "id": 203,
            "geometry": {
                "type": "Point",
                "coordinates": [
                    118.781921,
                    36.885615999999999
                ]
            },
            "properties": {
                "FID": 203,
                "objectId": 204,
                "name": "潍坊科技学院",
                "lon": 118.781921,
                "lat": 36.885615999999999
            }
        },
        {
            "type": "Feature",
            "id": 204,
            "geometry": {
                "type": "Point",
                "coordinates": [
                    117.05619799999999,
                    36.609257999999997
                ]
            },
            "properties": {
                "FID": 204,
                "objectId": 205,
                "name": "山东大学（千佛山）",
                "lon": 117.05619799999999,
                "lat": 36.609257999999997
            }
        },